City_ID,City,Lat,Lng,Max Temp,Humidity,Cloudiness,Wind Speed,Country,Date
0,alaghsas,17.0187,8.0168,15.43,21,64,4.77,NE,1736478693
1,sitka,57.0531,-135.33,6.52,97,100,4.32,US,1736478694
2,broken hill,-31.95,141.4333,35.0,15,0,0.38,AU,1736478695
3,qina,26.1642,32.7267,13.86,47,0,2.03,EG,1736478696
4,afaahiti,-17.75,-149.2833,27.14,76,99,5.43,PF,1736478697
5,carnarvon,-24.8667,113.6333,26.66,56,85,8.15,AU,1736478698
6,sampit,-2.5333,112.95,30.06,71,97,0.86,ID,1736478701
7,adamstown,-25.066,-130.1015,23.33,83,100,12.91,PN,1736478702
8,huarmey,-10.0681,-78.1522,21.56,83,100,3.61,PE,1736478703
9,gaspe,48.8334,-64.4819,-0.27,91,100,8.39,CA,1736478704
10,blackmans bay,-43.0167,147.3167,26.96,57,19,3.95,AU,1736478705
11,sukumo,32.9333,132.7333,3.7,82,42,5.86,JP,1736478706
12,margaret river,-33.95,115.0667,21.23,60,100,5.17,AU,1736478708
13,thompson,55.7435,-97.8558,-22.43,90,92,3.85,CA,1736478709
14,swift current,50.2834,-107.8014,-14.17,98,27,2.55,CA,1736478710
15,port-aux-francais,-49.35,70.2167,4.37,92,100,23.29,TF,1736478431
16,bredasdorp,-34.5322,20.0403,18.18,86,31,2.12,ZA,1736478712
17,isangel,-19.55,169.2667,27.79,58,2,4.41,VU,1736478713
18,albany,42.6001,-73.9662,-3.53,70,64,2.68,US,1736478488
19,badger,64.8,-147.5333,-5.36,88,75,0.0,US,1736478715
20,chibougamau,49.9168,-74.3659,-11.21,92,100,4.12,CA,1736478716
21,enewetak,11.3474,162.3373,27.38,79,9,9.49,MH,1736478717
22,pangoa,-12.1167,-73.0,20.99,99,100,0.98,PE,1736478719
23,longyearbyen,78.2186,15.6401,-3.09,100,100,4.12,SJ,1736478438
24,ushuaia,-54.8,-68.3,5.13,89,26,1.45,AR,1736478721
25,mata-utu,-13.2816,-176.1745,27.5,84,100,14.1,WF,1736478722
26,purbalingga,-7.3881,109.3639,32.42,58,98,0.3,ID,1736478723
27,vadso,70.0744,29.7487,-8.91,79,50,6.69,NO,1736478724
28,salalah,17.0151,54.0924,21.05,43,0,6.17,OM,1736478725
29,lucapa,-8.4192,20.7447,18.33,98,100,1.34,AO,1736478726
30,waitangi,-43.9535,-176.5597,14.9,71,83,5.36,NZ,1736478729
31,tura,25.5198,90.2201,18.66,59,0,0.34,IN,1736478730
32,badiyah,22.45,58.8,15.33,69,9,1.13,OM,1736478731
33,bilokurakyne,49.5341,38.7307,2.54,95,25,3.1,UA,1736478732
34,sao vicente,-23.9631,-46.3919,22.21,26,85,2.41,BR,1736478528
35,byron bay,-28.65,153.6167,26.6,60,69,3.8,AU,1736478736
36,kuanda,56.3161,116.0806,-28.12,97,25,0.66,RU,1736478737
37,iqaluit,63.7506,-68.5145,-18.49,99,100,1.31,CA,1736478738
38,santa elena de uairen,4.6167,-61.1333,21.61,56,67,2.1,VE,1736478739
39,rio verde,21.9333,-99.9833,16.72,71,32,2.65,MX,1736478475
40,edinburgh of the seven seas,-37.0676,-12.3116,17.72,95,100,8.15,SH,1736478741
41,san felipe,10.3399,-68.7425,20.13,96,85,1.62,VE,1736478742
42,westport,41.1415,-73.3579,-1.13,64,0,6.69,US,1736478744
43,bilibino,68.0546,166.4372,-27.27,98,100,1.05,RU,1736478745
44,kencong,-8.2833,113.3667,29.56,68,100,1.34,ID,1736478746
45,puerto ayora,-0.7393,-90.3518,24.19,97,73,1.79,EC,1736478747
46,terbanggi besar,-4.8667,105.2333,27.08,76,100,3.18,ID,1736478748
47,bamboo flat,11.7,92.7167,28.05,78,75,2.06,IN,1736478749
48,porto novo,6.4965,2.6036,23.98,86,2,1.99,BJ,1736478750
49,lagunas,-5.2269,-75.6753,23.72,91,99,0.72,PE,1736478752
50,diawara,15.022,-12.5437,23.94,16,0,5.96,SN,1736478753
51,talnakh,69.4865,88.3972,-28.21,99,30,2.33,RU,1736478677
52,coalinga,36.1397,-120.3602,8.36,61,0,0.63,US,1736478756
53,tiksi,71.6872,128.8694,-26.3,99,95,4.44,RU,1736478757
54,ulladulla,-35.35,150.4667,21.98,84,100,3.0,AU,1736478758
55,puerto natales,-51.7236,-72.4875,7.01,83,4,1.81,CL,1736478759
56,luang namtha,20.9497,101.4011,18.63,72,100,0.79,LA,1736478760
57,lebu,-37.6167,-73.65,12.94,83,0,7.71,CL,1736478762
58,lavrio,37.7145,24.0565,10.52,88,0,1.35,GR,1736478763
59,san angelo,31.4638,-100.437,1.44,91,99,1.34,US,1736478150
60,hermanus,-34.4187,19.2345,17.67,83,64,3.01,ZA,1736478765
61,ungsang-nodongjagu,42.3578,130.4622,-8.24,34,5,3.75,KP,1736478766
62,anadyr,64.75,177.4833,-28.72,75,40,8.0,RU,1736478767
63,la passe,45.5549,-0.8967,9.49,92,100,5.38,FR,1736478768
64,tyukhtet,56.5389,89.3011,-18.9,99,69,2.4,RU,1736478769
65,flying fish cove,-10.4217,105.6791,26.82,89,40,3.09,CX,1736478771
66,opuwo,-18.0607,13.84,20.64,45,89,2.13,NA,1736478773
67,rokiskis,55.9667,25.5833,2.96,99,100,4.82,LT,1736478774
68,invercargill,-46.4,168.35,18.34,68,82,4.02,NZ,1736478775
69,port macquarie,-31.4333,152.9167,23.93,86,100,1.79,AU,1736478776
70,as sanad,34.4628,9.264,9.15,48,0,1.9,TN,1736478777
71,whitehorse,60.7161,-135.0538,-3.63,95,100,3.11,CA,1736478521
72,ghadamis,30.1337,9.5007,10.06,43,1,2.39,LY,1736478779
73,diffa,13.3154,12.6113,15.44,26,0,4.05,NE,1736478781
74,gadzhiyevo,69.2551,33.3362,-9.14,99,100,4.55,RU,1736478782
75,yellowknife,62.456,-114.3525,-21.36,84,100,7.2,CA,1736478783
76,pisco,-13.7,-76.2167,20.03,83,0,3.09,PE,1736478784
77,puerto baquerizo moreno,-0.9,-89.6,23.87,89,92,3.01,EC,1736478785
78,papatowai,-46.5619,169.4708,16.72,64,75,4.46,NZ,1736478786
79,jamestown,42.097,-79.2353,-8.2,86,100,2.06,US,1736478488
80,prachatice,49.0129,13.9975,-2.58,78,28,7.65,CZ,1736478789
81,mount gambier,-37.8333,140.7667,31.51,25,85,3.67,AU,1736478791
82,kalimpong,27.0667,88.4833,17.2,50,3,1.55,IN,1736478792
83,saint-pierre,-21.3393,55.4781,25.82,61,0,3.09,RE,1736478793
84,codrington,-38.2667,141.9667,26.97,43,44,7.29,AU,1736478794
85,las palmas de gran canaria,28.0997,-15.4134,18.07,45,0,4.12,ES,1736478796
86,kukuna,9.4,-12.6667,22.25,91,98,0.73,SL,1736478797
87,hithadhoo,-0.6,73.0833,27.71,74,63,1.29,MV,1736478798
88,muroto-misakicho,33.2833,134.15,6.66,52,36,8.54,JP,1736478799
89,bethel,41.3712,-73.414,-2.1,69,0,4.02,US,1736478800
90,saipan,15.1355,145.701,31.39,77,40,6.17,MP,1736478801
91,picota,-6.9197,-76.3304,22.89,97,99,0.61,PE,1736478802
92,barranca,-10.75,-77.7667,20.82,83,99,3.3,PE,1736478803
93,college,64.8569,-147.8028,-5.31,79,75,0.0,US,1736478507
94,wakkanai,45.4094,141.6739,-0.01,93,75,11.83,JP,1736478806
95,zeya,53.75,127.2667,-13.86,69,7,0.62,RU,1736478807
96,inebolu,41.9747,33.7608,11.6,60,11,2.34,TR,1736478808
97,mili,6.0815,171.735,27.77,76,91,9.2,MH,1736478809
98,weno,7.4515,151.8468,30.97,74,20,3.6,FM,1736478810
99,colonia,50.9333,6.95,1.65,87,100,5.66,DE,1736478813
100,sakaiminato,35.55,133.2333,5.36,58,100,9.11,JP,1736478814
101,emerald,-23.5333,148.1667,32.97,48,7,3.62,AU,1736478815
102,hamilton,39.1834,-84.5333,-7.23,79,0,2.57,US,1736478349
103,wanda,-25.9693,-54.5697,22.13,46,49,0.41,AR,1736478817
104,amga,60.8953,131.9608,-27.87,96,95,0.41,RU,1736478819
105,namibe,-15.1961,12.1522,19.89,85,8,1.54,AO,1736478820
106,hobyo,5.3505,48.5268,23.98,74,39,8.47,SO,1736478821
107,funafuti,-8.5243,179.1942,30.0,70,75,9.26,TV,1736478677
108,catio,11.2833,-15.25,21.48,86,0,2.05,GW,1736478823
109,kolwezi,-10.7148,25.4667,16.05,99,100,1.66,CD,1736478824
110,tindouf,27.6711,-8.1474,10.92,32,25,2.6,DZ,1736478826
111,belyy yar,53.6039,91.3903,-14.06,85,100,1.0,RU,1736478827
112,tazacorte,28.629,-17.9293,16.54,43,0,4.47,ES,1736478828
113,hawaiian paradise park,19.5933,-154.9731,24.37,88,0,2.57,US,1736478829
114,mindelo,16.8901,-24.9804,21.75,78,20,7.72,CV,1736478830
115,bela,25.9333,81.9833,12.64,52,11,0.93,IN,1736478831
116,camabatela,-8.1881,15.375,17.25,99,100,0.95,AO,1736478832
117,cabedelo,-6.9811,-34.8339,27.37,85,9,4.65,BR,1736478628
118,georgetown,5.4112,100.3354,29.96,51,20,4.63,MY,1736478542
119,chui,-33.6971,-53.4616,17.46,86,0,2.78,UY,1736478835
120,kodiak,57.79,-152.4072,3.73,75,0,3.6,US,1736478837
121,ust-nera,64.5667,143.2,-30.22,98,88,1.26,RU,1736478838
122,wailua homesteads,22.0669,-159.378,25.44,82,0,5.14,US,1736478839
123,grytviken,-54.2811,-36.5092,6.02,96,100,3.36,GS,1736478840
124,amungan,15.3652,119.9582,29.06,58,78,1.27,PH,1736478841
125,kupang,-10.1667,123.5833,32.32,70,20,4.12,ID,1736478842
126,tamanrasset,22.785,5.5228,9.2,22,6,1.92,DZ,1736478843
127,katiola,8.1333,-5.1,23.42,21,100,1.27,CI,1736478844
128,constantia,44.1833,28.65,7.61,94,100,4.65,RO,1736478633
129,bozyazi,36.1082,32.9611,15.04,51,20,4.34,TR,1736478847
130,taulaga,-11.0553,-171.0883,28.76,69,100,10.11,AS,1736478848
131,nar'yan-mar,67.6713,53.087,-10.01,95,100,4.37,RU,1736478849
132,dimapur,25.9,93.7333,16.7,66,0,1.32,IN,1736478850
133,atafu village,-8.5421,-172.5159,28.14,73,100,8.03,TK,1736478851
134,rio grande,-32.035,-52.0986,21.17,80,0,6.79,BR,1736478852
135,san fernando de apure,7.8878,-67.4724,26.28,51,85,1.82,VE,1736478805
136,grand-bassam,5.2118,-3.7388,26.98,84,99,1.63,CI,1736478854
137,pauillac,45.1964,-0.7487,9.94,88,100,5.25,FR,1736478855
138,qaqortoq,60.7167,-46.0333,-9.91,70,22,3.67,GL,1736478857
139,las palmas,28.4204,-14.0131,14.44,88,40,3.6,ES,1736478858
140,smartno pri litiji,46.0444,14.8442,10.66,80,100,1.5,SI,1736478859
141,alotau,-10.3069,150.4462,32.28,56,94,2.99,PG,1736478860
142,fredericia,55.5657,9.7526,0.97,85,9,3.14,DK,1736478861
143,stanley,54.868,-1.6985,-3.61,88,11,3.09,GB,1736478863
144,avarua,-21.2078,-159.775,25.03,100,100,6.17,CK,1736478864
145,happy valley-goose bay,53.3168,-60.3315,0.11,79,100,10.47,CA,1736478866
146,burutu,5.3509,5.5076,25.59,84,1,1.16,NG,1736478867
147,kapa'a,22.0752,-159.319,26.18,81,0,5.14,US,1736478868
148,yerofey pavlovich,53.9667,121.9667,-16.59,76,4,1.39,RU,1736478869
149,sinop,41.7711,34.8709,7.45,61,7,4.12,TR,1736478870
150,fada,7.25,4.0667,21.24,48,8,1.08,NG,1736478871
151,tommot,58.9564,126.2925,-25.25,95,63,0.57,RU,1736478872
152,chadan,51.2833,91.5833,-20.47,100,100,0.57,RU,1736478874
153,okhotsk,59.3833,143.3,-19.07,78,15,6.29,RU,1736478875
154,ribeira grande,38.5167,-28.7,17.65,96,100,6.26,PT,1736478876
155,yuzhno-kurilsk,44.0306,145.8556,0.56,68,100,5.35,RU,1736478877
156,ilulissat,69.2167,-51.1,-28.43,87,11,2.88,GL,1736478878
157,banda aceh,5.5577,95.3222,27.92,71,43,6.79,ID,1736478879
158,margate,51.3813,1.3862,-0.73,87,8,4.11,GB,1736478880
159,bay roberts,47.5999,-53.2648,0.59,94,100,1.79,CA,1736478882
160,takaungu,-3.6837,39.8566,26.32,77,100,2.46,KE,1736478883
161,pierre,44.3683,-100.351,-1.49,80,0,10.8,US,1736478884
162,nogliki,51.8333,143.1667,-13.19,76,53,4.77,RU,1736478885
163,greymouth,-42.4667,171.2,19.24,66,74,3.69,NZ,1736478886
164,udachny,66.4167,112.4,-22.72,100,100,1.38,RU,1736478887
165,davangere,14.4667,75.9167,19.74,71,100,5.19,IN,1736478889
166,saudarkrokur,65.7461,-19.6394,-6.79,85,99,6.34,IS,1736478891
167,petropavlovsk-kamchatsky,53.0452,158.6483,-9.67,45,0,2.0,RU,1736478892
168,susanville,40.4163,-120.653,-0.09,82,0,1.54,US,1736478893
169,dexter,36.7959,-89.9579,-0.15,60,100,1.84,US,1736478894
170,churapcha,62.0025,132.4325,-27.56,93,100,1.01,RU,1736478895
171,aioun,16.6614,-9.6149,17.9,18,0,5.37,MR,1736478896
172,vuktyl,63.8567,57.3094,-9.91,89,99,5.52,RU,1736478897
173,bodaybo,57.8506,114.1933,-27.96,96,23,0.16,RU,1736478898
174,kasama,-10.2129,31.1808,16.85,96,100,1.67,ZM,1736478899
175,gyeongju,35.8428,129.2117,-2.28,32,0,4.46,KR,1736478901
176,mahanoro,-19.9,48.8,25.18,85,41,1.08,MG,1736478902
177,remire-montjoly,4.9167,-52.2667,24.02,100,75,0.51,GF,1736478903
178,sidney,-33.8679,151.2073,25.2,75,75,5.66,AU,1736478684
179,percut,3.6253,98.864,27.12,75,100,2.86,ID,1736478905
180,inhambane,-23.865,35.3833,27.2,87,13,5.93,MZ,1736478906
181,sandnessjoen,66.0217,12.6316,-3.48,90,100,5.63,NO,1736478907
182,champerico,14.3,-91.9167,27.16,74,85,1.95,GT,1736478908
183,olonkinbyen,70.9221,-8.7187,-10.6,78,100,11.6,SJ,1736478910
184,garachico,28.7781,-17.7646,15.06,67,0,4.12,ES,1736478911
185,zag,46.9441,99.165,-23.8,85,42,1.31,MN,1736478912
186,virginia,37.5481,-77.4467,-2.94,65,0,2.06,US,1736478913
187,valparaiso,-33.0393,-71.6273,16.8,82,0,3.6,CL,1736478622
188,kailua-kona,19.6406,-155.9956,26.42,86,92,0.89,US,1736478915
189,kalevala,65.2,31.1667,-21.65,99,64,1.1,RU,1736478916
190,brookings,44.3114,-96.7984,-2.0,88,100,4.12,US,1736478745
191,lihue,21.9789,-159.3672,25.77,78,0,5.14,US,1736478919
192,dudinka,69.4058,86.1778,-32.59,100,78,2.01,RU,1736478751
193,tadjourah,12.0,42.5,19.45,76,0,4.0,DJ,1736478921
194,bengkulu,-3.8004,102.2655,27.8,73,100,1.32,ID,1736478922
195,contramaestre,20.2978,-76.2414,17.46,87,83,0.54,CU,1736478923
196,charleston,32.7766,-79.9309,0.57,67,0,2.06,US,1736478900
197,klyuchi,52.2667,79.1667,-6.25,85,100,6.55,RU,1736478925
198,sisimiut,66.9395,-53.6735,-14.54,71,1,5.48,GL,1736478926
199,hilo,19.7297,-155.09,24.49,91,0,2.57,US,1736478927
200,nemuro,43.3236,145.575,0.22,73,97,6.33,JP,1736478929
201,kenai,60.5544,-151.2583,1.19,99,100,1.54,US,1736478930
202,st. john's,47.5649,-52.7093,0.54,87,84,1.79,CA,1736478764
203,labrador city,52.9463,-66.9114,-4.05,81,100,10.28,CA,1736478932
204,iskateley,67.6803,53.1512,-9.95,95,100,4.44,RU,1736478933
205,pitimbu,-7.4706,-34.8086,26.37,84,62,4.01,BR,1736478934
206,arraial do cabo,-22.9661,-42.0278,24.25,81,61,4.55,BR,1736478935
207,norrtalje,59.758,18.705,-1.66,98,100,1.46,SE,1736478811
208,chemin grenier,-20.4872,57.4656,26.77,81,52,7.09,MU,1736478938
209,daru,-9.0763,143.2092,27.68,81,100,1.97,PG,1736478939
210,itaituba,-4.2761,-55.9836,23.63,99,100,0.54,BR,1736478694
211,kyshtovka,56.555,76.6271,-3.82,88,100,7.67,RU,1736478941
212,yatou,37.15,122.3833,-0.73,62,61,6.35,CN,1736478942
213,napili-honokowai,20.9708,-156.6705,26.64,89,86,5.99,US,1736478943
214,khandyga,62.6667,135.6,-31.72,90,100,1.27,RU,1736478944
215,qarauyl,48.9451,79.255,-10.8,68,95,3.01,KZ,1736478945
216,rawson,-43.3002,-65.1023,14.72,56,91,7.77,AR,1736478942
217,boca suno,-0.7167,-77.1333,22.58,93,100,1.12,EC,1736478948
218,hastings,50.8552,0.5729,0.1,65,22,2.03,GB,1736478709
219,keflavik,64.0049,-22.5624,0.24,80,40,4.63,IS,1736478950
220,sao jose da coroa grande,-8.8978,-35.1478,26.2,85,69,5.12,BR,1736478951
221,masterton,-40.9597,175.6575,19.98,36,1,3.71,NZ,1736478810
222,trincomalee,8.5711,81.2335,25.87,85,34,5.32,LK,1736478953
223,west island,-12.1568,96.8225,28.99,84,75,5.66,CC,1736478954
224,qalat,32.1058,66.9083,2.46,43,100,4.99,AF,1736478955
225,kapuskasing,49.4169,-82.4331,-11.51,90,68,2.82,CA,1736478662
226,bardai,11.65,7.2333,13.31,24,0,4.62,NG,1736478958
227,utrik,11.2278,169.8474,26.8,78,8,9.38,MH,1736478959
228,eyl,7.9803,49.8164,21.91,76,15,5.7,SO,1736478961
229,aasiaat,68.7098,-52.8699,-22.95,100,85,2.27,GL,1736478962
230,kerikeri,-35.2268,173.9474,21.62,82,97,2.24,NZ,1736478963
231,sovetskaya gavan',48.9723,140.2878,-5.93,74,78,3.39,RU,1736478964
232,ambon,-3.6954,128.1814,32.08,100,40,1.03,ID,1736478965
233,zhongxing,33.7039,118.6792,0.22,18,0,2.26,CN,1736478855
234,celestun,20.8667,-90.4,20.7,71,2,4.75,MX,1736478968
235,oranjemund,-28.55,16.4333,16.58,93,0,2.24,NA,1736478969
236,geraldton,-28.7667,114.6,24.23,64,20,6.17,AU,1736478970
237,takoradi,4.8845,-1.7554,26.12,82,81,2.15,GH,1736478948
238,broome,42.2506,-75.833,-5.72,77,100,8.23,US,1736478972
239,susuman,62.7833,148.1667,-24.28,98,100,0.3,RU,1736478973
240,arawa,-6.2132,155.5367,30.91,70,72,3.3,PG,1736478969
241,praia da vitoria,38.7333,-27.0667,19.14,94,75,6.61,PT,1736478975
242,taltal,-25.4,-70.4833,19.8,83,6,1.14,CL,1736478977
243,dakoro,14.5106,6.765,12.93,27,0,5.37,NE,1736478978
244,tazovsky,67.4667,78.7,-19.51,95,100,7.83,RU,1736478979
245,gulf shores,30.246,-87.7008,8.33,66,95,7.06,US,1736478980
246,dubbo,-32.25,148.6167,29.07,45,20,3.6,AU,1736478981
247,pacific grove,36.6177,-121.9166,14.1,71,0,3.58,US,1736478974
248,pangody,65.85,74.4859,-13.88,89,100,12.37,RU,1736478983
249,yeppoon,-23.1333,150.7333,28.31,64,44,6.44,AU,1736478984
250,east london,-33.0153,27.9116,20.95,80,46,6.1,ZA,1736478936
251,flin flon,54.7682,-101.865,-20.09,92,88,3.16,CA,1736478987
252,taoudenni,22.6783,-3.9836,13.81,22,3,5.02,ML,1736478988
253,port elizabeth,-33.918,25.5701,20.73,89,0,3.6,ZA,1736478989
254,merizo village,13.2658,144.6691,29.99,83,84,6.95,GU,1736478990
255,christchurch,-43.5333,172.6333,20.18,59,76,3.6,NZ,1736478991
256,nevel'sk,46.6733,141.8633,-2.32,76,100,7.89,RU,1736478992
257,idrinskoye,54.3708,92.1358,-14.17,98,100,0.92,RU,1736478993
258,kayangel,8.0823,134.7173,28.7,75,39,7.88,PW,1736478994
259,tralee,52.2704,-9.7026,1.28,96,100,4.74,IE,1736478995
260,port lincoln,-34.7333,135.8667,22.81,52,12,4.08,AU,1736478997
261,letlhakeng,-24.0944,25.0298,20.78,86,93,3.06,BW,1736478998
262,haiku-pauwela,20.9219,-156.3051,26.01,74,0,7.15,US,1736478999
263,alibag,18.6411,72.8792,22.81,42,100,1.88,IN,1736478956
264,vorgashor,67.5833,63.95,-13.56,96,100,3.69,RU,1736479001
265,changyon,38.2508,125.0961,-3.36,50,94,7.26,KP,1736479003
266,isafjordur,66.0755,-23.124,-2.11,82,50,5.29,IS,1736479004
267,palikir - national government center,6.9248,158.1611,31.47,66,75,6.17,FM,1736479007
268,cannonvale,-20.2833,148.7,28.66,61,94,3.63,AU,1736479008
269,vernon,50.2581,-119.2691,2.18,73,98,1.79,CA,1736478841
270,chonchi,-42.6128,-73.8092,10.62,89,0,1.37,CL,1736479010
271,tari,-11.1105,14.3559,15.6,91,44,1.46,AO,1736479011
272,conceicao da barra,-18.5933,-39.7322,23.31,97,100,1.2,BR,1736479012
273,nikolayevsk-on-amure,53.1406,140.73,-17.66,86,12,2.2,RU,1736479014
274,vila velha,-20.3297,-40.2925,22.19,98,40,1.03,BR,1736478584
275,los osos,35.3111,-120.8324,15.09,47,0,1.34,US,1736479017
276,ilebo,-4.3167,20.5833,21.3,97,94,0.81,CD,1736479018
277,donaldsonville,30.101,-90.9929,7.75,76,100,4.12,US,1736479019
278,port mathurin,-19.6833,63.4167,26.04,88,81,10.92,MU,1736479020
279,kairouan,35.6781,10.0963,13.01,62,20,1.54,TN,1736479021
280,bel ombre,-4.6167,55.4167,26.91,94,75,1.03,SC,1736479022
281,ribas do rio pardo,-20.4431,-53.7592,27.39,52,100,2.82,BR,1736479024
282,luderitz,-26.6481,15.1594,16.61,83,4,5.79,NA,1736479025
283,tual,-5.6667,132.75,28.84,75,84,4.86,ID,1736478910
284,san rafael,-34.6177,-68.3301,25.04,41,11,8.2,AR,1736479027
285,bloemfontein,-29.1211,26.214,18.71,82,0,2.57,ZA,1736479028
286,high river,50.5834,-113.8687,-5.93,84,100,2.92,CA,1736478799
287,medina,24.4686,39.6142,12.24,62,40,4.12,SA,1736479030
288,bojia,26.4672,111.9681,7.55,26,0,2.92,CN,1736479032
289,mana,5.6592,-53.7767,25.55,79,9,3.7,GF,1736479033
290,las tablas,7.7667,-80.2833,25.1,99,65,6.01,PA,1736479034
291,wynyard,-41.0,145.7167,21.77,72,99,5.36,AU,1736479035
292,ghat,24.9647,10.1728,9.04,35,0,0.87,LY,1736479036
293,cockburn town,21.4612,-71.1419,24.22,60,71,5.79,TC,1736478981
294,saint-joseph,-21.3667,55.6167,27.21,81,99,5.74,RE,1736479038
295,porto torres,40.835,8.3972,13.1,63,17,7.11,IT,1736479039
296,toliara,-23.35,43.6667,27.07,63,4,3.26,MG,1736479041
297,roma,43.2128,-75.4557,-3.92,79,100,6.69,US,1736478784
298,santiago,-33.4569,-70.6483,23.25,66,0,3.6,CL,1736478513
299,kalat,29.0225,66.5916,1.89,30,0,1.76,PK,1736479044
300,es castell,39.8795,4.2854,12.38,94,0,1.54,ES,1736479045
301,poxoreo,-15.8372,-54.3892,22.0,95,100,1.21,BR,1736478851
302,sanandrei,45.8531,21.1681,11.21,72,0,5.66,RO,1736479047
303,hede,33.7681,120.2517,1.19,32,1,3.71,CN,1736479049
304,ciudad hidalgo,19.6833,-100.5667,11.0,84,20,2.59,MX,1736479050
305,vilyuchinsk,52.9306,158.4028,-7.85,71,0,2.56,RU,1736479051
306,zelenoborskiy,66.845,32.3622,-19.04,98,28,2.21,RU,1736479052
307,black river,18.0264,-77.8487,22.32,86,100,2.68,JM,1736479053
308,darwin,-12.4611,130.8418,30.99,84,75,1.54,AU,1736479022
309,san juan de miraflores,-12.1629,-76.9635,21.76,75,100,3.15,PE,1736479055
310,candido mendes,-1.4467,-45.7167,23.39,98,58,0.58,BR,1736479056
311,kayapinar,37.5574,41.165,0.95,59,8,1.51,TR,1736479059
312,cherdyn',60.403,56.4787,-6.7,85,59,4.41,RU,1736479060
313,preobrazheniye,42.9019,133.9064,-4.17,44,91,4.59,RU,1736479061
314,zungeru,9.8128,6.1558,21.96,21,0,3.84,NG,1736479062
315,yurgamysh,55.3714,64.4656,-2.8,86,100,7.4,RU,1736479063
316,malango,-2.9627,119.9001,25.64,64,100,1.35,ID,1736479064
317,bogande,12.9714,-0.1436,19.81,21,83,4.66,BF,1736479065
318,shanwei,22.782,115.3475,13.37,40,47,3.58,CN,1736479066
319,fale old settlement,-9.3852,-171.2468,28.18,69,91,8.36,TK,1736479067
320,touros,-5.1989,-35.4608,26.16,84,62,4.27,BR,1736479011
321,azadshahr,34.7909,48.5707,-5.73,93,0,0.0,IR,1736479070
322,mount isa,-20.7333,139.5,39.87,21,34,5.66,AU,1736478997
323,uturoa,-16.7333,-151.4333,28.36,72,92,5.76,PF,1736479072
324,alofi,-19.0595,-169.9187,23.94,100,75,3.6,NU,1736479073
325,zhangjiakou,40.81,114.8794,-9.92,43,0,2.02,CN,1736479006
326,sena madureira,-9.0656,-68.6569,22.55,97,78,0.75,BR,1736479075
327,crane,31.3974,-102.3501,2.93,66,28,6.05,US,1736479076
328,chapeco,-27.0964,-52.6183,21.86,78,0,2.57,BR,1736479077
329,polski trambesh,43.3836,25.6497,0.3,84,8,1.71,BG,1736479078
330,rudnichnyy,59.617,52.4703,-3.19,91,100,5.27,RU,1736479080
331,bayanhongor,46.7167,100.1167,-25.08,86,12,0.66,MN,1736479081
332,ad dawadimi,24.5077,44.3924,6.64,65,74,4.14,SA,1736479082
333,la'ie,21.6477,-157.9253,26.98,78,48,6.52,US,1736479083
334,montes claros,-16.735,-43.8617,20.88,100,40,3.09,BR,1736479084
335,arboletes,8.8505,-76.4269,25.74,87,10,3.12,CO,1736479085
336,springbok,-29.6643,17.8865,13.79,73,3,1.35,ZA,1736479086
337,rice lake,45.5061,-91.7382,-5.18,81,100,2.57,US,1736479087
338,salinopolis,-0.6136,-47.3561,25.84,88,46,3.01,BR,1736479089
339,nago,26.5881,127.9761,13.44,66,99,6.99,JP,1736479090
340,sabang,5.8933,95.3214,28.41,73,33,10.56,ID,1736479091
341,kundiawa,-6.0167,144.9667,21.7,84,100,0.75,PG,1736479092
342,saint-philippe,-21.3585,55.7679,26.24,86,96,5.54,RE,1736479093
343,carbonear,47.7332,-53.2148,0.64,93,100,6.6,CA,1736479094
344,gargalianoi,37.0667,21.6333,12.73,80,88,3.14,GR,1736479095
345,kotra,25.8167,79.3167,12.07,52,10,1.34,IN,1736479096
346,portales,34.1862,-103.3344,-2.21,86,98,2.24,US,1736478826
347,callao,-12.0667,-77.15,22.62,68,0,7.72,PE,1736479099
348,talodi,10.6325,30.3797,21.47,25,41,3.09,SD,1736479100
349,tursunzoda,38.5144,68.2333,2.71,44,0,1.8,TJ,1736479101
350,lompoc,34.6391,-120.4579,12.3,60,0,2.57,US,1736479102
351,timmins,48.4669,-81.3331,-15.23,87,13,1.93,CA,1736478857
352,xinyu,27.8043,114.9334,7.62,23,0,4.14,CN,1736479104
353,nguigmi,14.2495,13.1092,15.76,33,32,5.56,NE,1736478860
354,cuajinicuilapa,16.4667,-98.4167,24.03,85,36,0.84,MX,1736479106
355,kuta,-8.7233,115.1723,26.97,94,75,3.6,ID,1736479110
356,saldanha,-33.0117,17.9442,18.31,87,58,2.94,ZA,1736479111
357,ilha de mocambique,-15.0342,40.7358,26.48,86,55,2.79,MZ,1736479113
358,baiyin,36.5583,104.2081,-5.85,53,100,0.01,CN,1736479114
359,ksar chellala,35.2122,2.3189,8.6,91,1,3.51,DZ,1736479115
360,buka,40.8108,69.1986,-1.74,45,0,0.89,UZ,1736479117
361,tranqueras,-31.2,-55.75,22.33,59,75,4.18,UY,1736479118
362,punta arenas,-53.15,-70.9167,8.06,71,20,4.12,CL,1736479119
363,ji'an,27.1172,114.9793,7.91,22,0,4.17,CN,1736479120
364,hartselle,34.4434,-86.9353,0.92,67,99,1.64,US,1736479121
365,cape coast,5.1053,-1.2466,26.08,84,88,1.88,GH,1736478997
366,jayapura,-2.5333,140.7,32.66,77,100,2.58,ID,1736479124
367,bulungu,-4.55,18.6,20.55,97,77,0.55,CD,1736479125
368,hirtshals,57.5881,9.9592,1.51,84,100,8.2,DK,1736478973
369,ciudad insurgentes,25.2625,-111.7753,13.73,66,0,3.17,MX,1736479128
370,naifaru,5.4444,73.3657,27.58,81,73,8.37,MV,1736479129
371,ad-damazin,11.7891,34.3592,22.64,25,0,2.94,SD,1736479130
372,pindushi,62.9152,34.58,-21.52,100,33,0.28,RU,1736479131
373,tucuma,-0.1833,-50.05,24.48,91,28,1.62,BR,1736478865
374,terrace,54.5163,-128.6035,4.95,100,100,6.69,CA,1736479133
375,playa del ingles,27.7567,-15.5787,16.86,48,0,3.8,ES,1736479134
376,caleta de carquin,-11.0925,-77.6267,21.09,84,99,4.2,PE,1736479135
377,puerto cortez,15.8333,-87.95,23.18,85,100,2.04,HN,1736479137
378,turaif,31.6725,38.6637,3.14,65,0,3.6,SA,1736479138
379,korla,41.7597,86.1469,-7.86,87,96,1.64,CN,1736479029
380,acarau,-2.8856,-40.12,26.59,80,98,5.13,BR,1736479140
381,kabalo,-6.05,26.9167,20.93,98,100,0.96,CD,1736479141
382,vaskelovo,60.3693,30.3534,-2.19,95,100,2.44,RU,1736479142
383,umba,66.6871,34.3429,-19.15,100,23,1.9,RU,1736479143
384,dodge city,37.7528,-100.0171,-0.97,94,100,12.86,US,1736479144
385,eureka,40.8021,-124.1637,10.66,94,0,1.9,US,1736478965
386,yangjiang,21.85,111.9667,16.62,44,6,4.92,CN,1736479002
387,nema,57.5067,50.5011,-2.76,90,100,4.09,RU,1736479148
388,kasongo-lunda,-6.4667,16.8167,20.95,96,100,0.24,CD,1736478904
389,lima duarte,-21.8425,-43.7931,15.56,99,45,1.47,BR,1736479150
390,karhal,27.0003,78.9414,12.01,46,41,0.92,IN,1736479151
391,tsiombe,-25.3,45.4833,25.28,89,12,1.1,MG,1736479153
392,nuku'alofa,-21.1333,-175.2,27.19,74,75,4.12,TO,1736479155
393,puerto leguizamo,-0.1934,-74.7819,24.78,87,100,0.71,CO,1736479156
394,murun-kuren,49.6342,100.1625,-17.06,90,100,0.98,MN,1736479157
395,bodo,67.28,14.405,-5.98,76,0,8.23,NO,1736479158
396,selfoss,63.9331,-20.9971,-5.97,97,97,3.72,IS,1736479159
397,al jawf,29.5,38.75,7.95,64,0,4.97,SA,1736479160
398,palmer,42.1584,-72.3287,-4.49,60,9,1.79,US,1736479162
399,puerto deseado,-47.7503,-65.8938,12.26,65,4,8.85,AR,1736479163
400,lashio,22.9333,97.75,18.3,51,2,0.43,MM,1736479164
401,sheregesh,52.9209,87.9869,-9.46,96,100,1.51,RU,1736478976
402,walvis bay,-22.9575,14.5053,16.92,89,56,1.15,NA,1736479166
403,belozersk,60.0326,37.7957,-3.92,95,99,3.05,RU,1736479167
404,masku,60.5708,22.0988,1.18,93,100,3.09,FI,1736479168
405,kharp,66.8014,65.8081,-13.93,96,100,2.57,RU,1736479169
406,yemva,62.59,50.8594,-9.69,87,91,5.63,RU,1736479049
407,alenquer,-1.9417,-54.7383,24.2,93,100,1.23,BR,1736479173
408,san antonio de pale,-1.4014,5.6325,26.8,80,94,2.35,GQ,1736479174
409,howrah,22.5892,88.3103,16.0,77,0,3.6,IN,1736479175
410,salekhard,66.53,66.6019,-13.05,96,100,2.38,RU,1736479027
411,sault ste. marie,46.5168,-84.3333,-5.84,79,100,2.57,CA,1736478961
412,la ronge,55.1001,-105.2842,-17.86,85,100,1.54,CA,1736479178
413,ancud,-41.8697,-73.8203,10.04,76,3,1.9,CL,1736479179
414,biga,40.2281,27.2422,9.61,88,16,2.37,TR,1736479180
415,zapolyarnyy,69.4154,30.8136,-22.05,100,95,2.58,RU,1736479181
416,dakhla,23.6848,-15.958,18.0,38,0,7.12,EH,1736479183
417,saskatoon,52.1168,-106.6345,-16.52,99,23,2.08,CA,1736478641
418,maintirano,-18.0667,44.0167,26.71,84,99,2.82,MG,1736479185
419,loango,-4.6719,11.8312,23.24,91,55,2.29,CG,1736479186
420,copiapo,-27.3667,-70.3333,18.07,78,0,1.34,CL,1736479187
421,veraval,20.9,70.3667,20.46,54,89,3.19,IN,1736479188
422,mossel bay,-34.1831,22.146,19.96,79,91,4.26,ZA,1736478928
423,el nido,11.1858,119.3956,29.52,80,100,5.56,PH,1736479190
424,mapastepec,15.4333,-92.9,23.9,78,66,1.58,MX,1736479026
425,asika,19.6,84.65,19.24,59,0,0.89,IN,1736478940
426,hami,42.8,93.45,-5.51,78,85,1.09,CN,1736479194
427,axim,4.8699,-2.2405,25.79,83,68,2.04,GH,1736479195
428,cervera,41.67,1.2721,7.51,94,89,1.18,ES,1736479196
429,juhaynah,26.6732,31.4976,12.92,49,0,2.96,EG,1736479197
430,bakchar,57.0186,82.0711,-11.28,94,100,4.12,RU,1736479199
431,winkler,49.1817,-97.941,-5.88,86,98,3.6,CA,1736479100
432,canavieiras,-15.675,-38.9472,25.25,87,100,3.47,BR,1736479202
433,aljezur,37.3191,-8.8033,13.13,88,11,1.03,PT,1736479203
434,prince rupert,54.3161,-130.3201,9.05,93,100,11.32,CA,1736479204
435,malabar,-33.9667,151.25,25.91,73,75,6.17,AU,1736479205
436,mokhsogollokh,61.4681,128.9203,-27.91,91,68,1.01,RU,1736479206
437,santa ana,33.7456,-117.8678,21.38,14,0,3.13,US,1736478470
438,rongelap,11.1635,166.8941,27.27,77,2,9.83,MH,1736479208
439,malakal,9.5334,31.6605,23.7,27,11,3.71,SS,1736479212
440,little mountain,41.2444,-112.2547,-0.95,58,0,5.37,US,1736479213
441,onguday,50.75,86.15,-8.39,94,100,1.32,RU,1736479090
442,usinsk,65.9939,57.5281,-9.92,94,100,7.09,RU,1736479215
443,kinango,-4.1372,39.3153,23.23,90,100,1.63,KE,1736479216
444,matoury,4.8483,-52.3317,23.98,100,75,0.51,GF,1736479218
445,mbanza kongo,-6.267,14.2401,20.11,98,97,0.95,AO,1736479219
446,yinchuan,38.4681,106.2731,-4.38,41,42,2.48,CN,1736479220
447,cabo san lucas,22.8909,-109.9124,18.17,55,40,3.6,MX,1736479221
448,el fasher,13.6279,25.3494,14.84,30,5,3.02,SD,1736479222
449,berdigestyakh,62.0989,126.6992,-26.49,93,99,1.47,RU,1736479223
450,dunedin,-45.8742,170.5036,14.73,73,87,3.16,NZ,1736479224
451,belabo,4.9333,13.3,16.25,41,31,1.26,CM,1736479226
452,ambovombe,-25.1667,46.0833,25.49,77,6,1.13,MG,1736479227
453,tangalle,6.024,80.7911,25.77,87,97,0.97,LK,1736479228
454,nova sintra,14.8667,-24.7167,24.0,73,0,9.62,CV,1736479229
455,edremit,39.5961,27.0244,4.86,100,20,3.09,TR,1736479008
456,san sebastian de la gomera,28.0916,-17.1133,19.2,27,0,1.03,ES,1736479231
457,shiyan,32.6475,110.7781,3.7,30,99,1.09,CN,1736479232
458,urengoy,65.9667,78.3667,-18.16,92,100,8.23,RU,1736479234
459,ketchikan,55.3422,-131.6461,9.26,88,100,7.72,US,1736479236
460,usevia,-7.1,31.2333,18.32,98,99,1.48,TZ,1736479237
461,collinsville,38.6703,-89.9846,-3.06,88,75,2.57,US,1736479238
462,atarrabia,42.8323,-1.6074,6.23,100,40,1.03,ES,1736479239
463,aykhal,66.0,111.5,-20.88,100,100,1.85,RU,1736479240
464,enoch,37.7733,-113.0244,-3.62,70,0,4.12,US,1736479241
465,cabinda,-5.55,12.2,24.0,92,42,2.4,AO,1736479242
466,koshki,54.2091,50.4677,-0.61,81,100,1.84,RU,1736479243
467,bajna,27.9,77.6833,10.86,53,0,1.21,IN,1736479244
468,laojunmiao,39.8333,97.7333,-8.22,74,89,3.01,CN,1736479246
469,guia lopes da laguna,-21.4578,-56.1142,25.32,38,0,1.69,BR,1736479247
470,makarov,48.6333,142.8,-2.45,70,12,5.78,RU,1736479248
471,polyarnyy,69.1989,33.4478,-9.9,98,99,4.62,RU,1736479249
472,chul'man,56.8479,124.9104,-26.57,92,29,0.57,RU,1736479250
473,beau vallon,-20.4189,57.6953,27.13,89,75,6.17,MU,1736479251
474,newman,37.3138,-121.0208,10.59,81,0,0.63,US,1736479253
475,baikonur,45.6167,63.3167,-7.03,78,7,4.61,KZ,1736479254
476,swan hill,-35.3378,143.5544,34.08,16,14,2.68,AU,1736479256
477,buique,-8.6231,-37.1558,19.95,83,75,1.61,BR,1736479257
478,san luis de la loma,17.2706,-100.8939,24.72,78,59,2.94,MX,1736479258
479,mildura,-34.2,142.15,35.04,25,0,2.42,AU,1736479259
480,north branch,45.5113,-92.9802,-5.94,93,98,1.34,US,1736479095
481,manokwari,-0.8667,134.0833,28.89,70,41,2.31,ID,1736479252
482,bathsheba,13.2167,-59.5167,23.34,88,20,3.09,BB,1736479262
483,antofagasta,-23.65,-70.4,19.6,77,57,1.39,CL,1736478969
484,smithers,54.7804,-127.1743,3.18,100,100,5.66,CA,1736479264
485,nigel,-26.4314,28.4771,19.09,96,98,2.55,ZA,1736479266
486,miquelon,47.0975,-56.3814,1.75,96,100,4.89,PM,1736479267
487,fuglafjordur,62.244,-6.814,-1.04,69,64,2.66,FO,1736479268
488,ilare,7.3507,5.1133,19.64,39,5,1.03,NG,1736479269
489,mascote,-15.5631,-39.3025,23.66,91,100,1.38,BR,1736479270
490,aripuana,-9.1667,-60.6333,22.26,98,92,0.75,BR,1736479271
491,sola,-13.8833,167.55,27.83,69,89,2.01,VU,1736479272
492,grand rapids,42.9634,-85.6681,-4.54,66,100,2.24,US,1736478827
493,tuburan,6.6439,122.2736,28.14,74,66,2.11,PH,1736479274
494,kudymkar,59.0173,54.656,-2.27,86,100,5.46,RU,1736479275
495,wellington,-41.2866,174.7756,16.81,55,2,6.17,NZ,1736479277
496,augusta,48.3667,10.8833,0.39,80,75,4.63,DE,1736479278
497,syktyvkar,61.6764,50.8099,-8.15,79,20,4.0,RU,1736479279
498,dingcheng,32.1272,115.0394,3.69,16,22,1.79,CN,1736479280
499,siwa oasis,29.2041,25.5195,12.76,80,0,4.16,EG,1736479281
500,nishinoomote,30.7333,131.0,5.31,56,20,7.72,JP,1736479282
501,hirara,24.8,125.2833,16.15,67,75,10.8,JP,1736479283
502,pesqueira,-8.3578,-36.6964,20.02,90,56,2.29,BR,1736479284
503,lamu,-2.2717,40.902,25.08,84,88,3.65,KE,1736479285
504,cidreira,-30.1811,-50.2056,22.33,73,3,7.46,BR,1736479287
505,nuuk,64.1835,-51.7216,-5.66,73,6,7.2,GL,1736479288
506,murghob,38.1702,73.9667,-32.1,83,67,1.07,TJ,1736479289
507,seria,4.6167,114.3167,28.93,76,72,2.79,BN,1736479185
508,port alfred,-33.5906,26.891,18.99,90,0,4.95,ZA,1736479291
509,fisterra,42.9049,-9.2629,14.67,94,89,10.11,ES,1736479292
510,kendari,-3.945,122.4989,24.84,91,100,1.31,ID,1736479139
511,presidente epitacio,-21.7633,-52.1156,25.0,62,12,3.22,BR,1736479295
512,malmesbury,-33.4608,18.7271,18.23,85,82,1.31,ZA,1736479296
513,ontario,34.0633,-117.6509,19.51,16,0,5.14,US,1736479297
514,casa grande,32.8795,-111.7573,10.79,29,0,4.63,US,1736479298
515,port douglas,-16.4833,145.4667,29.45,62,8,3.63,AU,1736479299
516,mtsensk,53.2766,36.5733,1.78,86,100,5.99,RU,1736479300
517,urzhar,47.093,81.6294,-10.57,75,12,2.99,KZ,1736479215
518,raduzhny,62.0961,77.475,-12.75,93,100,8.74,RU,1736479303
519,port augusta,-32.5,137.7667,32.89,22,1,6.53,AU,1736479304
520,shizunai-furukawacho,42.3339,142.3669,1.07,52,22,2.82,JP,1736479305
521,akureyri,65.6835,-18.0878,-2.04,64,20,6.69,IS,1736479306
522,tolanaro,-25.0319,46.9987,24.89,92,8,4.87,MG,1736479307
523,mo i rana,66.3128,14.1428,-7.74,86,100,1.54,NO,1736479308
524,kirensk,57.7853,108.1119,-15.26,96,100,1.94,RU,1736479191
525,kruisfontein,-34.0033,24.7314,18.14,90,46,3.74,ZA,1736479310
526,yamada,39.4667,141.95,2.85,47,38,1.03,JP,1736479312
527,impfondo,1.6381,18.0667,24.71,55,86,1.23,CG,1736479313
528,lorengau,-2.0226,147.2712,29.73,70,56,3.37,PG,1736479315
529,dryden,49.7833,-92.7503,-5.84,93,100,2.06,CA,1736479316
530,pyu,18.4833,96.4333,23.9,54,1,2.48,MM,1736479063
531,parabel',58.6978,81.4825,-13.16,95,100,6.08,RU,1736479318
532,egilsstadir,65.2653,-14.3948,-15.05,85,0,0.51,IS,1736479319
533,mahibadhoo,3.7833,72.9667,27.39,80,98,6.8,MV,1736479321
534,awjilah,29.1081,21.2869,11.07,90,0,3.51,LY,1736479322
535,quellon,-43.1167,-73.6167,9.0,86,0,3.29,CL,1736479323
536,eastham,41.8301,-69.9739,-1.7,75,75,8.05,US,1736479324
537,nasiriyah,31.0521,46.261,12.16,55,48,3.45,IQ,1736479325
538,huaiyuan chengguanzhen,32.9589,117.1657,2.23,18,0,0.29,CN,1736479327
539,necochea,-38.5473,-58.7368,17.68,94,100,5.01,AR,1736479328
540,gao,16.6362,1.637,16.08,18,100,6.46,ML,1736479329
541,at-bashi,41.1702,75.8106,-16.11,54,0,1.93,KG,1736479330
542,proletariy,58.4342,31.7046,-3.35,95,50,3.49,RU,1736479331
543,luba,3.4568,8.5547,26.45,82,11,2.16,GQ,1736479092
544,mahdia,35.5047,11.0622,13.6,62,0,5.38,TN,1736479333
545,chernyshevskiy,63.0128,112.4714,-19.51,99,100,1.1,RU,1736479334
546,cochrane,51.1834,-114.4687,-3.71,86,40,1.03,CA,1736479063
547,dali,25.7,100.1833,11.04,57,7,1.33,CN,1736479337
548,choyr,46.3611,108.3611,-19.52,79,61,0.62,MN,1736479272
549,betio village,1.358,172.9211,31.02,79,16,5.53,KI,1736479339
550,yung shue wan,22.2333,114.1167,15.38,45,10,0.45,HK,1736479340
551,wanning,18.8003,110.3967,19.49,71,75,7.0,CN,1736479342
552,reggane,26.7158,0.1714,14.19,19,22,4.48,DZ,1736479343
553,dhangadhi,28.7079,80.5961,12.5,64,0,1.29,NP,1736479344
554,derzhavinsk,51.1,66.3167,-11.67,70,73,7.62,KZ,1736479345
555,katsuura,35.1333,140.3,6.77,33,2,6.75,JP,1736479346
556,acapulco de juarez,16.8634,-99.8901,26.9,78,75,3.6,MX,1736479347
557,hadibu,12.65,54.0333,22.08,70,2,4.67,YE,1736479350
558,shenjiamen,29.9576,122.298,4.03,58,42,8.0,CN,1736479351
559,thunder bay,48.4001,-89.3168,-4.01,93,75,2.57,CA,1736479340
560,labytnangi,66.6572,66.4183,-13.19,96,100,2.5,RU,1736479353
561,noumea,-22.2763,166.4572,25.62,65,33,7.82,NC,1736479354
562,muynoq,43.7683,59.0214,-2.96,42,0,2.93,UZ,1736479356
563,al bawiti,28.3492,28.8659,10.62,54,0,4.08,EG,1736479358
564,fort bragg,35.139,-79.006,-2.25,58,0,2.06,US,1736479359
565,bulayevo,54.9056,70.4439,-4.86,70,100,10.19,KZ,1736479360
566,poshekhon'ye,58.4993,39.1353,-3.91,95,57,3.2,RU,1736479362
567,north bend,43.4065,-124.2243,8.95,93,0,1.54,US,1736479363
568,bich'vinta,43.1592,40.3378,12.17,59,0,2.11,GE,1736479364
569,noyon,49.5833,3.0,0.03,91,70,2.0,FR,1736479360
570,mbandaka,0.0487,18.2603,23.97,79,100,1.66,CD,1736479368
571,mugia,43.1041,-9.2179,16.06,93,98,10.38,ES,1736479369
572,bikenibeu village,1.3673,173.1241,30.98,70,20,4.12,KI,1736479370
573,micheweni,-4.9667,39.8333,27.62,71,92,3.42,TZ,1736479371
574,kourou,5.1552,-52.6478,24.46,84,49,2.13,GF,1736479372
575,birjand,32.8663,59.2211,-1.74,59,0,3.09,IR,1736479374
576,richards bay,-28.783,32.0377,23.71,90,7,4.53,ZA,1736479375
577,acajutla,13.5928,-89.8275,25.73,75,63,2.07,SV,1736479376
578,bandarbeyla,9.4942,50.8122,23.1,72,17,6.88,SO,1736479377
579,kuhmo,64.1333,29.5167,-22.32,100,59,0.73,FI,1736479378
580,tulun,54.5611,100.5792,-11.75,94,100,0.17,RU,1736479379
581,bereznik,62.8551,42.7072,-14.2,90,6,2.53,RU,1736479381
582,kidal,18.4411,1.4078,15.34,19,100,5.63,ML,1736479382
583,bezhetsk,57.7851,36.6965,-3.48,95,73,3.41,RU,1736479383
584,suoyarvi,62.0833,32.35,-8.56,96,99,2.17,RU,1736479384
585,alice springs,-23.7,133.8833,40.75,10,34,4.63,AU,1736479157
586,tshabong,-26.05,22.45,24.42,26,99,2.72,BW,1736479386
587,viqueque,-8.8673,126.3658,32.04,57,100,0.65,TL,1736479387
588,greenland,43.0362,-70.8328,-4.94,64,0,8.23,US,1736479315
589,sihanoukville,10.6093,103.5296,29.97,48,20,5.66,KH,1736479390
590,shakawe,-18.3667,21.85,21.31,74,100,1.57,BW,1736479391
591,khenchela,35.4358,7.1433,6.82,61,0,2.95,DZ,1736479392
592,pakruojis,55.9667,23.8667,2.77,100,100,6.21,LT,1736479393
593,santa marta,11.2408,-74.199,28.03,54,20,4.63,CO,1736479394
594,kampong speu,11.5,104.3333,26.68,50,90,7.42,KH,1736479395
595,linxia chengguanzhen,35.6003,103.2064,-7.34,74,100,1.47,CN,1736479396
596,santa barbara,34.7333,-120.0343,11.31,23,0,2.06,US,1736479398
597,vershino-darasunskiy,52.35,115.5167,-18.33,71,58,1.06,RU,1736479399
598,south hedland,-20.4089,118.5983,31.96,58,100,6.69,AU,1736479400
